{
  "type": "FeatureCollection",
  "features": [
    {
      "type": "Feature",
      "properties": {
        "name": "Svukuriset",
        "service_level": "betjent",
        "operator": "DNT Oslo og Omegn",
        "capacity": 43,
        "booking_required": true,
        "fee": false,
        "fireplace": false
      },
      "geometry": {
        "type": "Point",
        "coordinates": [
          12.0150272,
          62.2214612
        ]
      }
    },
    {
      "type": "Feature",
      "properties": {
        "name": "Sota Sæter",
        "service_level": "betjent",
        "operator": "DNT Oslo og Omegn",
        "capacity": 77,
        "booking_required": true,
        "fee": false,
        "fireplace": false
      },
      "geometry": {
        "type": "Point",
        "coordinates": [
          7.7102484,
          61.8091955
        ]
      }
    },
    {
      "type": "Feature",
      "properties": {
        "name": "Skjennungstua",
        "service_level": "servering",
        "operator": "DNT",
        "capacity": 0,
        "booking_required": false,
        "fee": false,
        "fireplace": false
      },
      "geometry": {
        "type": "Point",
        "coordinates": [
          10.6911113,
          60.0024641
        ]
      }
    },
    {
      "type": "Feature",
      "properties": {
        "name": "Fossheim hotell",
        "service_level": "betjent",
        "operator": "DNT",
        "capacity": 0,
        "booking_required": false,
        "fee": false,
        "fireplace": false
      },
      "geometry": {
        "type": "Point",
        "coordinates": [
          8.572358,
          61.8384166
        ]
      }
    },
    {
      "type": "Feature",
      "properties": {
        "name": "Rønningen",
        "service_level": "servering",
        "operator": "Trondhjems Turistforening",
        "capacity": 0,
        "booking_required": true,
        "fee": false,
        "fireplace": false
      },
      "geometry": {
        "type": "Point",
        "coordinates": [
          10.262345,
          63.3782696
        ]
      }
    },
    {
      "type": "Feature",
      "properties": {
        "name": "Lygnasæter hotell",
        "service_level": "betjent",
        "operator": "DNT",
        "capacity": 50,
        "booking_required": false,
        "fee": false,
        "fireplace": false
      },
      "geometry": {
        "type": "Point",
        "coordinates": [
          10.6445357,
          60.4551031
        ]
      }
    },
    {
      "type": "Feature",
      "properties": {
        "name": "Krossbu Turiststasjon",
        "service_level": "betjent",
        "operator": "DNT",
        "capacity": 85,
        "booking_required": false,
        "fee": false,
        "fireplace": false
      },
      "geometry": {
        "type": "Point",
        "coordinates": [
          8.0325165,
          61.5740701
        ]
      }
    },
    {
      "type": "Feature",
      "properties": {
        "name": "Liseth pensjonat",
        "service_level": "betjent",
        "operator": "Den Norske Turistforening",
        "capacity": 75,
        "booking_required": false,
        "fee": false,
        "fireplace": false
      },
      "geometry": {
        "type": "Point",
        "coordinates": [
          7.2731485,
          60.42286
        ]
      }
    },
    {
      "type": "Feature",
      "properties": {
        "name": "Sandbakken",
        "service_level": "servering",
        "operator": "DNT",
        "capacity": 0,
        "booking_required": false,
        "fee": false,
        "fireplace": false
      },
      "geometry": {
        "type": "Point",
        "coordinates": [
          10.9167047,
          59.828622
        ]
      }
    },
    {
      "type": "Feature",
      "properties": {
        "name": "Lurfjellhytta",
        "service_level": "ubetjent",
        "operator": "Bodø og Omegns Turistforening",
        "capacity": 23,
        "booking_required": true,
        "fee": false,
        "fireplace": false
      },
      "geometry": {
        "type": "Point",
        "coordinates": [
          14.7458448,
          67.1173422
        ]
      }
    },
    {
      "type": "Feature",
      "properties": {
        "name": "Røvollen",
        "service_level": "selvbetjent",
        "operator": "DNT Oslo og Omegn",
        "capacity": 25,
        "booking_required": true,
        "fee": false,
        "fireplace": false
      },
      "geometry": {
        "type": "Point",
        "coordinates": [
          12.0493414,
          62.3505942
        ]
      }
    },
    {
      "type": "Feature",
      "properties": {
        "name": "Tømtehytta",
        "service_level": "ubetjent",
        "operator": "DNT Oslo og Omegn",
        "capacity": 8,
        "booking_required": true,
        "fee": false,
        "fireplace": false
      },
      "geometry": {
        "type": "Point",
        "coordinates": [
          10.7612734,
          60.0513076
        ]
      }
    },
    {
      "type": "Feature",
      "properties": {
        "name": "Gjendebu",
        "service_level": "betjent",
        "operator": "DNT Oslo og Omegn",
        "capacity": 164,
        "booking_required": true,
        "fee": false,
        "fireplace": false
      },
      "geometry": {
        "type": "Point",
        "coordinates": [
          8.4885665,
          61.4514077
        ]
      }
    },
    {
      "type": "Feature",
      "properties": {
        "name": "Hallingskeid Turisthytte",
        "service_level": "selvbetjent",
        "operator": "Bergen Turlag",
        "capacity": 53,
        "booking_required": true,
        "fee": false,
        "fireplace": false
      },
      "geometry": {
        "type": "Point",
        "coordinates": [
          7.2486228,
          60.6681596
        ]
      }
    },
    {
      "type": "Feature",
      "properties": {
        "name": "Nedalshytta",
        "service_level": "betjent",
        "operator": "Trondhjems Turistforening",
        "capacity": 88,
        "booking_required": true,
        "fee": false,
        "fireplace": false
      },
      "geometry": {
        "type": "Point",
        "coordinates": [
          12.1019098,
          62.97854
        ]
      }
    },
    {
      "type": "Feature",
      "properties": {
        "name": "Finnerud Sportsstue",
        "service_level": "servering",
        "operator": "DNT",
        "capacity": 0,
        "booking_required": false,
        "fee": false,
        "fireplace": false
      },
      "geometry": {
        "type": "Point",
        "coordinates": [
          10.6400783,
          60.0312102
        ]
      }
    },
    {
      "type": "Feature",
      "properties": {
        "name": "Rondvassbu",
        "service_level": "betjent",
        "operator": "DNT Oslo og Omegn",
        "capacity": 156,
        "booking_required": true,
        "fee": false,
        "fireplace": false
      },
      "geometry": {
        "type": "Point",
        "coordinates": [
          9.7963376,
          61.8787483
        ]
      }
    },
    {
      "type": "Feature",
      "properties": {
        "name": "Bjørnhollia",
        "service_level": "betjent",
        "operator": "DNT Oslo og Omegn",
        "capacity": 104,
        "booking_required": true,
        "fee": false,
        "fireplace": false
      },
      "geometry": {
        "type": "Point",
        "coordinates": [
          10.0119584,
          61.8840823
        ]
      }
    },
    {
      "type": "Feature",
      "properties": {
        "name": "Thonvollen",
        "service_level": "betjent",
        "operator": "Den Norske Turistforening",
        "capacity": 36,
        "booking_required": false,
        "fee": false,
        "fireplace": false
      },
      "geometry": {
        "type": "Point",
        "coordinates": [
          8.5958306,
          61.3561246
        ]
      }
    },
    {
      "type": "Feature",
      "properties": {
        "name": "Bygdin Høyfjellshotell",
        "service_level": "betjent",
        "operator": "Den Norske Turistforening",
        "capacity": 80,
        "booking_required": false,
        "fee": false,
        "fireplace": false
      },
      "geometry": {
        "type": "Point",
        "coordinates": [
          8.7987903,
          61.3276988
        ]
      }
    },
    {
      "type": "Feature",
      "properties": {
        "name": "Mustadkroken",
        "service_level": "ubetjent",
        "operator": "DNT Oslo og Omegn",
        "capacity": 30,
        "booking_required": true,
        "fee": false,
        "fireplace": false
      },
      "geometry": {
        "type": "Point",
        "coordinates": [
          10.3716819,
          59.9720259
        ]
      }
    },
    {
      "type": "Feature",
      "properties": {
        "name": "Haverdalseter Turisthytte",
        "service_level": "betjent",
        "operator": "Daeng og Knut Ståle Sætrom",
        "capacity": 44,
        "booking_required": false,
        "fee": false,
        "fireplace": false
      },
      "geometry": {
        "type": "Point",
        "coordinates": [
          9.6635764,
          62.0332084
        ]
      }
    },
    {
      "type": "Feature",
      "properties": {
        "name": "Svartskogkoia",
        "service_level": "ubetjent",
        "operator": "Hamar og Hedemarken Turistforening",
        "capacity": 8,
        "booking_required": true,
        "fee": false,
        "fireplace": false
      },
      "geometry": {
        "type": "Point",
        "coordinates": [
          11.4660816,
          60.8369901
        ]
      }
    },
    {
      "type": "Feature",
      "properties": {
        "name": "Småsætra",
        "service_level": "nødbu",
        "operator": "Løiten Almenning",
        "capacity": 3,
        "booking_required": false,
        "fee": false,
        "fireplace": false
      },
      "geometry": {
        "type": "Point",
        "coordinates": [
          11.4703678,
          60.8190774
        ]
      }
    },
    {
      "type": "Feature",
      "properties": {
        "name": "Svarttjennkoia",
        "service_level": "nødbu",
        "operator": "Løiten Almenning",
        "capacity": 5,
        "booking_required": false,
        "fee": false,
        "fireplace": false
      },
      "geometry": {
        "type": "Point",
        "coordinates": [
          11.4702558,
          60.8254687
        ]
      }
    },
    {
      "type": "Feature",
      "properties": {
        "name": "Leirvassbu",
        "service_level": "betjent",
        "operator": "Elveseter",
        "capacity": 195,
        "booking_required": false,
        "fee": false,
        "fireplace": false
      },
      "geometry": {
        "type": "Point",
        "coordinates": [
          8.2476038,
          61.5485603
        ]
      }
    },
    {
      "type": "Feature",
      "properties": {
        "name": "Brunkollen turisthytte",
        "service_level": "servering",
        "operator": "DNT",
        "capacity": 0,
        "booking_required": false,
        "fee": false,
        "fireplace": false
      },
      "geometry": {
        "type": "Point",
        "coordinates": [
          10.5475001,
          59.9673709
        ]
      }
    },
    {
      "type": "Feature",
      "properties": {
        "name": "Eiksetra",
        "service_level": "betjent",
        "operator": "DNT Drammen og Omegn",
        "capacity": 0,
        "booking_required": false,
        "fee": false,
        "fireplace": false
      },
      "geometry": {
        "type": "Point",
        "coordinates": [
          10.1276927,
          59.8192082
        ]
      }
    },
    {
      "type": "Feature",
      "properties": {
        "name": "Innerdalshytta",
        "service_level": "selvbetjent",
        "operator": "Kristiansund og Nordmøre Turistforening",
        "capacity": 53,
        "booking_required": true,
        "fee": false,
        "fireplace": false
      },
      "geometry": {
        "type": "Point",
        "coordinates": [
          8.7764311,
          62.7219005
        ]
      }
    },
    {
      "type": "Feature",
      "properties": {
        "name": "Renndølsetra",
        "service_level": "betjent",
        "operator": "Den Norske Turistforening",
        "capacity": 30,
        "booking_required": false,
        "fee": false,
        "fireplace": false
      },
      "geometry": {
        "type": "Point",
        "coordinates": [
          8.7656616,
          62.7236601
        ]
      }
    },
    {
      "type": "Feature",
      "properties": {
        "name": "Mikkelsbonn",
        "service_level": "servering",
        "operator": "Skiforeningen",
        "capacity": 0,
        "booking_required": false,
        "fee": false,
        "fireplace": false
      },
      "geometry": {
        "type": "Point",
        "coordinates": [
          10.3810939,
          59.9187474
        ]
      }
    },
    {
      "type": "Feature",
      "properties": {
        "name": "Solli gård",
        "service_level": "servering",
        "operator": "Asker Kommune",
        "capacity": 0,
        "booking_required": false,
        "fee": false,
        "fireplace": false
      },
      "geometry": {
        "type": "Point",
        "coordinates": [
          10.3410138,
          59.8499257
        ]
      }
    },
    {
      "type": "Feature",
      "properties": {
        "name": "Hovdehytta",
        "service_level": "ubetjent",
        "operator": "DNT Oslo og Omegn",
        "capacity": 8,
        "booking_required": true,
        "fee": false,
        "fireplace": false
      },
      "geometry": {
        "type": "Point",
        "coordinates": [
          10.3576549,
          59.8458944
        ]
      }
    },
    {
      "type": "Feature",
      "properties": {
        "name": "Blåkollkoia",
        "service_level": "ubetjent",
        "operator": "Troms Turlag",
        "capacity": 5,
        "booking_required": true,
        "fee": false,
        "fireplace": false
      },
      "geometry": {
        "type": "Point",
        "coordinates": [
          19.20878,
          69.6809402
        ]
      }
    },
    {
      "type": "Feature",
      "properties": {
        "name": "Skarvassbu",
        "service_level": "selvbetjent",
        "operator": "Troms Turlag",
        "capacity": 4,
        "booking_required": true,
        "fee": false,
        "fireplace": false
      },
      "geometry": {
        "type": "Point",
        "coordinates": [
          19.2011094,
          69.6380678
        ]
      }
    },
    {
      "type": "Feature",
      "properties": {
        "name": "Nedrefosshytta",
        "service_level": "ubetjent",
        "operator": "Troms Turlag",
        "capacity": 16,
        "booking_required": true,
        "fee": false,
        "fireplace": false
      },
      "geometry": {
        "type": "Point",
        "coordinates": [
          21.9691124,
          69.3208625
        ]
      }
    },
    {
      "type": "Feature",
      "properties": {
        "name": "Rostahytta",
        "service_level": "ubetjent",
        "operator": "DNT Oslo og Omegn",
        "capacity": 33,
        "booking_required": true,
        "fee": false,
        "fireplace": false
      },
      "geometry": {
        "type": "Point",
        "coordinates": [
          20.0268506,
          68.939377
        ]
      }
    },
    {
      "type": "Feature",
      "properties": {
        "name": "Ventebu",
        "service_level": "nødbu",
        "operator": "Troms Turlag",
        "capacity": 0,
        "booking_required": true,
        "fee": false,
        "fireplace": false
      },
      "geometry": {
        "type": "Point",
        "coordinates": [
          19.7202386,
          68.7637401
        ]
      }
    },
    {
      "type": "Feature",
      "properties": {
        "name": "Stordalsstua",
        "service_level": "ubetjent",
        "operator": "Troms Turlag",
        "capacity": 8,
        "booking_required": true,
        "fee": false,
        "fireplace": false
      },
      "geometry": {
        "type": "Point",
        "coordinates": [
          18.1867093,
          68.5531041
        ]
      }
    },
    {
      "type": "Feature",
      "properties": {
        "name": "Hundalshytta",
        "service_level": "ubetjent",
        "operator": "Narvik og Omegn Turistforening",
        "capacity": 14,
        "booking_required": true,
        "fee": false,
        "fireplace": false
      },
      "geometry": {
        "type": "Point",
        "coordinates": [
          17.8992917,
          68.3182446
        ]
      }
    },
    {
      "type": "Feature",
      "properties": {
        "name": "Oallavagge",
        "service_level": "nødbu",
        "operator": "Narvik og Omegn Turistforening",
        "capacity": 0,
        "booking_required": true,
        "fee": false,
        "fireplace": false
      },
      "geometry": {
        "type": "Point",
        "coordinates": [
          17.9979207,
          68.2936571
        ]
      }
    },
    {
      "type": "Feature",
      "properties": {
        "name": "Storsteinshytta",
        "service_level": "ubetjent",
        "operator": "Narvik og Omegn Turistforening",
        "capacity": 4,
        "booking_required": true,
        "fee": false,
        "fireplace": false
      },
      "geometry": {
        "type": "Point",
        "coordinates": [
          17.9633871,
          68.1990361
        ]
      }
    },
    {
      "type": "Feature",
      "properties": {
        "name": "Cáihnavággihytta",
        "service_level": "ubetjent",
        "operator": "Narvik og Omegn Turistforening",
        "capacity": 14,
        "booking_required": true,
        "fee": false,
        "fireplace": false
      },
      "geometry": {
        "type": "Point",
        "coordinates": [
          17.947996,
          68.1189329
        ]
      }
    },
    {
      "type": "Feature",
      "properties": {
        "name": "Losistua",
        "service_level": "ubetjent",
        "operator": "DNT Oslo og Omegn",
        "capacity": 10,
        "booking_required": true,
        "fee": false,
        "fireplace": false
      },
      "geometry": {
        "type": "Point",
        "coordinates": [
          17.7845141,
          68.1901463
        ]
      }
    },
    {
      "type": "Feature",
      "properties": {
        "name": "Skoaddejávre",
        "service_level": "ubetjent",
        "operator": "Narvik og Omegn Turistforening",
        "capacity": 12,
        "booking_required": true,
        "fee": false,
        "fireplace": false
      },
      "geometry": {
        "type": "Point",
        "coordinates": [
          17.5926033,
          68.0588151
        ]
      }
    },
    {
      "type": "Feature",
      "properties": {
        "name": "Sitashytta",
        "service_level": "ubetjent",
        "operator": "Narvik og Omegn Turistforening",
        "capacity": 8,
        "booking_required": true,
        "fee": false,
        "fireplace": false
      },
      "geometry": {
        "type": "Point",
        "coordinates": [
          17.2347661,
          68.100582
        ]
      }
    },
    {
      "type": "Feature",
      "properties": {
        "name": "Paurohytta",
        "service_level": "ubetjent",
        "operator": "Narvik og Omegn Turistforening",
        "capacity": 12,
        "booking_required": true,
        "fee": false,
        "fireplace": false
      },
      "geometry": {
        "type": "Point",
        "coordinates": [
          17.0306957,
          68.0490338
        ]
      }
    },
    {
      "type": "Feature",
      "properties": {
        "name": "Skoddeberghytta",
        "service_level": "ubetjent",
        "operator": "Harstad Turlag",
        "capacity": 7,
        "booking_required": true,
        "fee": false,
        "fireplace": false
      },
      "geometry": {
        "type": "Point",
        "coordinates": [
          17.2332339,
          68.5635421
        ]
      }
    },
    {
      "type": "Feature",
      "properties": {
        "name": "Blåvatnhytta",
        "service_level": "ubetjent",
        "operator": "Harstad Turlag",
        "capacity": 10,
        "booking_required": true,
        "fee": false,
        "fireplace": false
      },
      "geometry": {
        "type": "Point",
        "coordinates": [
          17.0132008,
          68.5709003
        ]
      }
    },
    {
      "type": "Feature",
      "properties": {
        "name": "Maistua",
        "service_level": "ubetjent",
        "operator": "Harstad Turlag",
        "capacity": 4,
        "booking_required": true,
        "fee": false,
        "fireplace": false
      },
      "geometry": {
        "type": "Point",
        "coordinates": [
          16.5196442,
          68.7614982
        ]
      }
    },
    {
      "type": "Feature",
      "properties": {
        "name": "Bjørnhaugen",
        "service_level": "ubetjent",
        "operator": "Harstad Turlag",
        "capacity": 12,
        "booking_required": true,
        "fee": false,
        "fireplace": false
      },
      "geometry": {
        "type": "Point",
        "coordinates": [
          16.3896615,
          68.6583336
        ]
      }
    },
    {
      "type": "Feature",
      "properties": {
        "name": "Haakonsbu",
        "service_level": "ubetjent",
        "operator": "Harstad Turlag",
        "capacity": 4,
        "booking_required": true,
        "fee": false,
        "fireplace": false
      },
      "geometry": {
        "type": "Point",
        "coordinates": [
          16.065063,
          68.5943663
        ]
      }
    },
    {
      "type": "Feature",
      "properties": {
        "name": "Fossestua",
        "service_level": "ubetjent",
        "operator": "Harstad Turlag",
        "capacity": 8,
        "booking_required": true,
        "fee": false,
        "fireplace": false
      },
      "geometry": {
        "type": "Point",
        "coordinates": [
          16.0473736,
          68.6349622
        ]
      }
    },
    {
      "type": "Feature",
      "properties": {
        "name": "Ingemannhytta",
        "service_level": "ubetjent",
        "operator": "Vesterålen Turlag",
        "capacity": 5,
        "booking_required": true,
        "fee": false,
        "fireplace": false
      },
      "geometry": {
        "type": "Point",
        "coordinates": [
          15.7523517,
          68.7048958
        ]
      }
    },
    {
      "type": "Feature",
      "properties": {
        "name": "Snytindhytta",
        "service_level": "ubetjent",
        "operator": "Vesterålen Turlag",
        "capacity": 14,
        "booking_required": true,
        "fee": false,
        "fireplace": false
      },
      "geometry": {
        "type": "Point",
        "coordinates": [
          15.575553,
          68.5640545
        ]
      }
    },
    {
      "type": "Feature",
      "properties": {
        "name": "Selfjordhytta",
        "service_level": "ubetjent",
        "operator": "Lofoten Turlag",
        "capacity": 9,
        "booking_required": true,
        "fee": false,
        "fireplace": false
      },
      "geometry": {
        "type": "Point",
        "coordinates": [
          13.0751658,
          68.03592
        ]
      }
    },
    {
      "type": "Feature",
      "properties": {
        "name": "Ny-Sulitjelma fjellstue (Hanken)",
        "service_level": "ubetjent",
        "operator": "Sulitjelma og Omegn Turistforening",
        "capacity": 26,
        "booking_required": true,
        "fee": false,
        "fireplace": false
      },
      "geometry": {
        "type": "Point",
        "coordinates": [
          16.1368391,
          67.1401726
        ]
      }
    },
    {
      "type": "Feature",
      "properties": {
        "name": "Lomihytta",
        "service_level": "ubetjent",
        "operator": "Sulitjelma og Omegn Turistforening",
        "capacity": 4,
        "booking_required": true,
        "fee": false,
        "fireplace": false
      },
      "geometry": {
        "type": "Point",
        "coordinates": [
          16.2036218,
          67.1236209
        ]
      }
    },
    {
      "type": "Feature",
      "properties": {
        "name": "Muorkihytta",
        "service_level": "ubetjent",
        "operator": "Sulitjelma og Omegn Turistforening",
        "capacity": 8,
        "booking_required": true,
        "fee": false,
        "fireplace": false
      },
      "geometry": {
        "type": "Point",
        "coordinates": [
          16.3724255,
          67.054297
        ]
      }
    },
    {
      "type": "Feature",
      "properties": {
        "name": "Tjalalveshytta",
        "service_level": "ubetjent",
        "operator": "Sulitjelma og Omegn Turistforening",
        "capacity": 25,
        "booking_required": true,
        "fee": false,
        "fireplace": false
      },
      "geometry": {
        "type": "Point",
        "coordinates": [
          16.0945186,
          67.0540414
        ]
      }
    },
    {
      "type": "Feature",
      "properties": {
        "name": "Gjælentunet",
        "service_level": "ubetjent",
        "operator": "Bodø og Omegns Turistforening",
        "capacity": 34,
        "booking_required": true,
        "fee": false,
        "fireplace": false
      },
      "geometry": {
        "type": "Point",
        "coordinates": [
          14.4267132,
          67.1878308
        ]
      }
    },
    {
      "type": "Feature",
      "properties": {
        "name": "Tverrbrennstua",
        "service_level": "ubetjent",
        "operator": "Bodø og Omegns Turistforening",
        "capacity": 23,
        "booking_required": true,
        "fee": false,
        "fireplace": false
      },
      "geometry": {
        "type": "Point",
        "coordinates": [
          14.9485669,
          67.0018938
        ]
      }
    },
    {
      "type": "Feature",
      "properties": {
        "name": "Jordbruhytta",
        "service_level": "ubetjent",
        "operator": "Bodø og Omegns Turistforening",
        "capacity": 8,
        "booking_required": true,
        "fee": false,
        "fireplace": false
      },
      "geometry": {
        "type": "Point",
        "coordinates": [
          15.2365214,
          66.9359408
        ]
      }
    },
    {
      "type": "Feature",
      "properties": {
        "name": "Bjellåvasstua",
        "service_level": "ubetjent",
        "operator": "Bodø og Omegns Turistforening",
        "capacity": 29,
        "booking_required": true,
        "fee": false,
        "fireplace": false
      },
      "geometry": {
        "type": "Point",
        "coordinates": [
          15.0456599,
          66.8494461
        ]
      }
    },
    {
      "type": "Feature",
      "properties": {
        "name": "Storeng fjellgård",
        "service_level": "stengt",
        "operator": "Bodø og Omegns Turistforening",
        "capacity": 4,
        "booking_required": false,
        "fee": false,
        "fireplace": false
      },
      "geometry": {
        "type": "Point",
        "coordinates": [
          15.5184914,
          66.9263877
        ]
      }
    },
    {
      "type": "Feature",
      "properties": {
        "name": "Trygvebu",
        "service_level": "ubetjent",
        "operator": "Bodø og Omegns Turistforening",
        "capacity": 20,
        "booking_required": true,
        "fee": false,
        "fireplace": false
      },
      "geometry": {
        "type": "Point",
        "coordinates": [
          15.6888647,
          66.8005523
        ]
      }
    },
    {
      "type": "Feature",
      "properties": {
        "name": "Lønsstua",
        "service_level": "ubetjent",
        "operator": "Bodø og Omegns Turistforening",
        "capacity": 30,
        "booking_required": true,
        "fee": false,
        "fireplace": false
      },
      "geometry": {
        "type": "Point",
        "coordinates": [
          15.465619,
          66.7360225
        ]
      }
    },
    {
      "type": "Feature",
      "properties": {
        "name": "Midtistua",
        "service_level": "ubetjent",
        "operator": "Bodø og Omegns Turistforening",
        "capacity": 16,
        "booking_required": true,
        "fee": false,
        "fireplace": false
      },
      "geometry": {
        "type": "Point",
        "coordinates": [
          15.0129592,
          66.7608134
        ]
      }
    },
    {
      "type": "Feature",
      "properties": {
        "name": "Saltfjellstua",
        "service_level": "ubetjent",
        "operator": "Rana Turistforening",
        "capacity": 20,
        "booking_required": true,
        "fee": false,
        "fireplace": false
      },
      "geometry": {
        "type": "Point",
        "coordinates": [
          15.0259014,
          66.7149655
        ]
      }
    },
    {
      "type": "Feature",
      "properties": {
        "name": "Krukkistua",
        "service_level": "ubetjent",
        "operator": "Rana Turistforening",
        "capacity": 8,
        "booking_required": true,
        "fee": false,
        "fireplace": false
      },
      "geometry": {
        "type": "Point",
        "coordinates": [
          15.0490779,
          66.6788792
        ]
      }
    },
    {
      "type": "Feature",
      "properties": {
        "name": "Blakkådalshytta",
        "service_level": "ubetjent",
        "operator": "Rana Turistforening",
        "capacity": 12,
        "booking_required": true,
        "fee": false,
        "fireplace": false
      },
      "geometry": {
        "type": "Point",
        "coordinates": [
          14.4009758,
          66.5454807
        ]
      }
    },
    {
      "type": "Feature",
      "properties": {
        "name": "Bolnastua",
        "service_level": "ubetjent",
        "operator": "Rana Turistforening",
        "capacity": 13,
        "booking_required": true,
        "fee": false,
        "fireplace": false
      },
      "geometry": {
        "type": "Point",
        "coordinates": [
          15.2379836,
          66.4924338
        ]
      }
    },
    {
      "type": "Feature",
      "properties": {
        "name": "Corraskoia (Daumannselvkoia)",
        "service_level": "nødbu",
        "operator": "Rana Turistforening",
        "capacity": 0,
        "booking_required": true,
        "fee": false,
        "fireplace": false
      },
      "geometry": {
        "type": "Point",
        "coordinates": [
          15.373352,
          66.3511103
        ]
      }
    },
    {
      "type": "Feature",
      "properties": {
        "name": "Virvasshytta",
        "service_level": "ubetjent",
        "operator": "Rana Turistforening",
        "capacity": 16,
        "booking_required": true,
        "fee": false,
        "fireplace": false
      },
      "geometry": {
        "type": "Point",
        "coordinates": [
          15.3646462,
          66.3085612
        ]
      }
    },
    {
      "type": "Feature",
      "properties": {
        "name": "Kvitsteindalstunet",
        "service_level": "ubetjent",
        "operator": "Rana Turistforening",
        "capacity": 10,
        "booking_required": true,
        "fee": false,
        "fireplace": false
      },
      "geometry": {
        "type": "Point",
        "coordinates": [
          15.0515441,
          66.1840932
        ]
      }
    },
    {
      "type": "Feature",
      "properties": {
        "name": "Kjennsvasshytta",
        "service_level": "ubetjent",
        "operator": "Hemnes Turistforening",
        "capacity": 15,
        "booking_required": true,
        "fee": false,
        "fireplace": false
      },
      "geometry": {
        "type": "Point",
        "coordinates": [
          14.2612302,
          66.0656537
        ]
      }
    },
    {
      "type": "Feature",
      "properties": {
        "name": "Gressvasshytta",
        "service_level": "ubetjent",
        "operator": "Hemnes Turistforening",
        "capacity": 14,
        "booking_required": true,
        "fee": false,
        "fireplace": false
      },
      "geometry": {
        "type": "Point",
        "coordinates": [
          14.4240133,
          66.0479925
        ]
      }
    },
    {
      "type": "Feature",
      "properties": {
        "name": "Steinbua",
        "service_level": "nødbu",
        "operator": "Hemnes Turistforening",
        "capacity": 0,
        "booking_required": true,
        "fee": false,
        "fireplace": false
      },
      "geometry": {
        "type": "Point",
        "coordinates": [
          14.0999173,
          66.0072176
        ]
      }
    },
    {
      "type": "Feature",
      "properties": {
        "name": "Gråfjellhytta",
        "service_level": "ubetjent",
        "operator": "Hemnes Turistforening",
        "capacity": 11,
        "booking_required": true,
        "fee": false,
        "fireplace": false
      },
      "geometry": {
        "type": "Point",
        "coordinates": [
          14.0530404,
          65.9879334
        ]
      }
    },
    {
      "type": "Feature",
      "properties": {
        "name": "Eldåbu",
        "service_level": "selvbetjent",
        "operator": "DNT Oslo og Omegn",
        "capacity": 18,
        "booking_required": true,
        "fee": false,
        "fireplace": false
      },
      "geometry": {
        "type": "Point",
        "coordinates": [
          9.9793564,
          61.7562897
        ]
      }
    },
    {
      "type": "Feature",
      "properties": {
        "name": "Storgrytdalseter",
        "service_level": "selvbetjent",
        "operator": "DNT Oslo og Omegn",
        "capacity": 6,
        "booking_required": true,
        "fee": false,
        "fireplace": false
      },
      "geometry": {
        "type": "Point",
        "coordinates": [
          10.3694441,
          61.9123422
        ]
      }
    },
    {
      "type": "Feature",
      "properties": {
        "name": "Korsberghytta",
        "service_level": "selvbetjent",
        "operator": "DNT Oslo og Omegn",
        "capacity": 13,
        "booking_required": true,
        "fee": false,
        "fireplace": false
      },
      "geometry": {
        "type": "Point",
        "coordinates": [
          10.4438233,
          61.974786
        ]
      }
    },
    {
      "type": "Feature",
      "properties": {
        "name": "Grimsdalshytta",
        "service_level": "betjent",
        "operator": "DNT Oslo og Omegn",
        "capacity": 66,
        "booking_required": true,
        "fee": false,
        "fireplace": false
      },
      "geometry": {
        "type": "Point",
        "coordinates": [
          9.6424018,
          62.0912005
        ]
      }
    },
    {
      "type": "Feature",
      "properties": {
        "name": "Knausen",
        "service_level": "selvbetjent",
        "operator": "DNT Oslo og Omegn",
        "capacity": 7,
        "booking_required": true,
        "fee": false,
        "fireplace": false
      },
      "geometry": {
        "type": "Point",
        "coordinates": [
          10.9558089,
          62.2238852
        ]
      }
    },
    {
      "type": "Feature",
      "properties": {
        "name": "Raudsjødalen",
        "service_level": "selvbetjent",
        "operator": "DNT Oslo og Omegn",
        "capacity": 15,
        "booking_required": true,
        "fee": false,
        "fireplace": false
      },
      "geometry": {
        "type": "Point",
        "coordinates": [
          11.150376,
          62.2151525
        ]
      }
    },
    {
      "type": "Feature",
      "properties": {
        "name": "Ellefsplass",
        "service_level": "selvbetjent",
        "operator": "DNT Oslo og Omegn",
        "capacity": 12,
        "booking_required": true,
        "fee": false,
        "fireplace": false
      },
      "geometry": {
        "type": "Point",
        "coordinates": [
          11.448247,
          62.2044651
        ]
      }
    },
    {
      "type": "Feature",
      "properties": {
        "name": "Sæter",
        "service_level": "selvbetjent",
        "operator": "Den Norske Turistforening",
        "capacity": 20,
        "booking_required": false,
        "fee": false,
        "fireplace": false
      },
      "geometry": {
        "type": "Point",
        "coordinates": [
          11.762182,
          62.2470669
        ]
      }
    },
    {
      "type": "Feature",
      "properties": {
        "name": "Narjordet",
        "service_level": "selvbetjent",
        "operator": "DNT Oslo og Omegn",
        "capacity": 6,
        "booking_required": true,
        "fee": false,
        "fireplace": false
      },
      "geometry": {
        "type": "Point",
        "coordinates": [
          11.4110246,
          62.430133
        ]
      }
    },
    {
      "type": "Feature",
      "properties": {
        "name": "Småvannsbu",
        "service_level": "ubetjent",
        "operator": "DNT Oslo og Omegn",
        "capacity": 4,
        "booking_required": true,
        "fee": false,
        "fireplace": false
      },
      "geometry": {
        "type": "Point",
        "coordinates": [
          10.3763258,
          59.7862478
        ]
      }
    },
    {
      "type": "Feature",
      "properties": {
        "name": "Sørsetra",
        "service_level": "servering",
        "operator": "DNT",
        "capacity": 0,
        "booking_required": false,
        "fee": false,
        "fireplace": false
      },
      "geometry": {
        "type": "Point",
        "coordinates": [
          10.3280852,
          60.020239
        ]
      }
    },
    {
      "type": "Feature",
      "properties": {
        "name": "Skullerudstua",
        "service_level": "servering",
        "operator": "Skiforeningen",
        "capacity": 0,
        "booking_required": false,
        "fee": false,
        "fireplace": false
      },
      "geometry": {
        "type": "Point",
        "coordinates": [
          10.8463302,
          59.8636619
        ]
      }
    },
    {
      "type": "Feature",
      "properties": {
        "name": "Liomseter",
        "service_level": "betjent",
        "operator": "DNT Oslo og Omegn",
        "capacity": 40,
        "booking_required": false,
        "fee": false,
        "fireplace": false
      },
      "geometry": {
        "type": "Point",
        "coordinates": [
          9.5946768,
          61.2423242
        ]
      }
    },
    {
      "type": "Feature",
      "properties": {
        "name": "Svarvestolen",
        "service_level": "ubetjent",
        "operator": "Drammens og Oplands Turistforening",
        "capacity": 8,
        "booking_required": true,
        "fee": false,
        "fireplace": false
      },
      "geometry": {
        "type": "Point",
        "coordinates": [
          10.0327338,
          59.8834442
        ]
      }
    },
    {
      "type": "Feature",
      "properties": {
        "name": "Mjølfjell Ungdomsherberge",
        "service_level": "betjent",
        "operator": "private",
        "capacity": 100,
        "booking_required": false,
        "fee": false,
        "fireplace": false
      },
      "geometry": {
        "type": "Point",
        "coordinates": [
          6.9382498,
          60.7021571
        ]
      }
    },
    {
      "type": "Feature",
      "properties": {
        "name": "Hovden Fjellstoge",
        "service_level": "unknown",
        "operator": "Den Norske Turistforening",
        "capacity": 150,
        "booking_required": false,
        "fee": false,
        "fireplace": false
      },
      "geometry": {
        "type": "Point",
        "coordinates": [
          7.3892433,
          59.5794306
        ]
      }
    },
    {
      "type": "Feature",
      "properties": {
        "name": "Finsehytta",
        "service_level": "betjent",
        "operator": "DNT Oslo og Omegn",
        "capacity": 150,
        "booking_required": true,
        "fee": false,
        "fireplace": false
      },
      "geometry": {
        "type": "Point",
        "coordinates": [
          7.5070391,
          60.5979163
        ]
      }
    },
    {
      "type": "Feature",
      "properties": {
        "name": "Kongshelleren",
        "service_level": "selvbetjent",
        "operator": "DNT Oslo og Omegn",
        "capacity": 12,
        "booking_required": true,
        "fee": true,
        "fireplace": false
      },
      "geometry": {
        "type": "Point",
        "coordinates": [
          7.7011667,
          60.7770989
        ]
      }
    },
    {
      "type": "Feature",
      "properties": {
        "name": "Hellevassbu",
        "service_level": "selvbetjent",
        "operator": "DNT Oslo og Omegn",
        "capacity": 26,
        "booking_required": true,
        "fee": false,
        "fireplace": false
      },
      "geometry": {
        "type": "Point",
        "coordinates": [
          7.2151591,
          59.9829633
        ]
      }
    },
    {
      "type": "Feature",
      "properties": {
        "name": "Litlos",
        "service_level": "betjent",
        "operator": "DNT Oslo og Omegn",
        "capacity": 60,
        "booking_required": true,
        "fee": false,
        "fireplace": false
      },
      "geometry": {
        "type": "Point",
        "coordinates": [
          7.1371543,
          60.0938207
        ]
      }
    },
    {
      "type": "Feature",
      "properties": {
        "name": "Stavali",
        "service_level": "selvbetjent",
        "operator": "Bergen Turlag",
        "capacity": 62,
        "booking_required": true,
        "fee": false,
        "fireplace": false
      },
      "geometry": {
        "type": "Point",
        "coordinates": [
          6.8949293,
          60.3184041
        ]
      }
    },
    {
      "type": "Feature",
      "properties": {
        "name": "Fondsbu",
        "service_level": "betjent",
        "operator": "DNT Oslo og Omegn",
        "capacity": 100,
        "booking_required": true,
        "fee": false,
        "fireplace": false
      },
      "geometry": {
        "type": "Point",
        "coordinates": [
          8.2973974,
          61.3751863
        ]
      }
    },
    {
      "type": "Feature",
      "properties": {
        "name": "Eidsbugarden hotell",
        "service_level": "betjent",
        "operator": "DNT",
        "capacity": 75,
        "booking_required": false,
        "fee": false,
        "fireplace": false
      },
      "geometry": {
        "type": "Point",
        "coordinates": [
          8.2997765,
          61.3756077
        ]
      }
    },
    {
      "type": "Feature",
      "properties": {
        "name": "Olavsbu",
        "service_level": "selvbetjent",
        "operator": "DNT Oslo og Omegn",
        "capacity": 40,
        "booking_required": true,
        "fee": false,
        "fireplace": false
      },
      "geometry": {
        "type": "Point",
        "coordinates": [
          8.2742366,
          61.4711366
        ]
      }
    },
    {
      "type": "Feature",
      "properties": {
        "name": "Svartenut",
        "service_level": "selvbetjent",
        "operator": "DNT Sør",
        "capacity": 20,
        "booking_required": true,
        "fee": false,
        "fireplace": false
      },
      "geometry": {
        "type": "Point",
        "coordinates": [
          7.2504501,
          59.1317879
        ]
      }
    },
    {
      "type": "Feature",
      "properties": {
        "name": "Sellanrå",
        "service_level": "selvbetjent",
        "operator": "Friluftsklubben",
        "capacity": 15,
        "booking_required": false,
        "fee": false,
        "fireplace": false
      },
      "geometry": {
        "type": "Point",
        "coordinates": [
          10.7570937,
          60.0505313
        ]
      }
    },
    {
      "type": "Feature",
      "properties": {
        "name": "Reindalseter",
        "service_level": "betjent",
        "operator": "Ålesund-Sunnmøre Turistforening",
        "capacity": 128,
        "booking_required": true,
        "fee": false,
        "fireplace": false
      },
      "geometry": {
        "type": "Point",
        "coordinates": [
          7.5782621,
          62.1874056
        ]
      }
    },
    {
      "type": "Feature",
      "properties": {
        "name": "Sæteren gård",
        "service_level": "ubetjent",
        "operator": "DNT Oslo og Omegn",
        "capacity": 62,
        "booking_required": true,
        "fee": false,
        "fireplace": false
      },
      "geometry": {
        "type": "Point",
        "coordinates": [
          10.5621885,
          59.9478038
        ]
      }
    },
    {
      "type": "Feature",
      "properties": {
        "name": "Kobberhaughytta",
        "service_level": "betjent",
        "operator": "DNT Oslo og Omegn",
        "capacity": 30,
        "booking_required": true,
        "fee": false,
        "fireplace": false
      },
      "geometry": {
        "type": "Point",
        "coordinates": [
          10.6636841,
          60.0360959
        ]
      }
    },
    {
      "type": "Feature",
      "properties": {
        "name": "Fjellvang",
        "service_level": "ubetjent",
        "operator": "DNT Oslo og Omegn",
        "capacity": 14,
        "booking_required": true,
        "fee": false,
        "fireplace": false
      },
      "geometry": {
        "type": "Point",
        "coordinates": [
          10.8400944,
          60.0246601
        ]
      }
    },
    {
      "type": "Feature",
      "properties": {
        "name": "Sinober Sportsstue",
        "service_level": "servering",
        "operator": "DNT",
        "capacity": 0,
        "booking_required": false,
        "fee": false,
        "fireplace": false
      },
      "geometry": {
        "type": "Point",
        "coordinates": [
          10.840258,
          60.0254126
        ]
      }
    },
    {
      "type": "Feature",
      "properties": {
        "name": "Håheller",
        "service_level": "ubetjent",
        "operator": "DNT Sør",
        "capacity": 9,
        "booking_required": true,
        "fee": false,
        "fireplace": false
      },
      "geometry": {
        "type": "Point",
        "coordinates": [
          7.1654068,
          59.0298467
        ]
      }
    },
    {
      "type": "Feature",
      "properties": {
        "name": "Grautheller",
        "service_level": "selvbetjent",
        "operator": "Stavanger Turistforening",
        "capacity": 30,
        "booking_required": true,
        "fee": false,
        "fireplace": false
      },
      "geometry": {
        "type": "Point",
        "coordinates": [
          6.876597,
          59.1124629
        ]
      }
    },
    {
      "type": "Feature",
      "properties": {
        "name": "Flørli turiststasjon",
        "service_level": "ubetjent",
        "operator": "Stavanger Turistforening",
        "capacity": 24,
        "booking_required": true,
        "fee": false,
        "fireplace": false
      },
      "geometry": {
        "type": "Point",
        "coordinates": [
          6.4255708,
          59.0125157
        ]
      }
    },
    {
      "type": "Feature",
      "properties": {
        "name": "Hovatn",
        "service_level": "selvbetjent",
        "operator": "Stavanger Turistforening",
        "capacity": 28,
        "booking_required": true,
        "fee": false,
        "fireplace": false
      },
      "geometry": {
        "type": "Point",
        "coordinates": [
          7.03634,
          59.3527031
        ]
      }
    },
    {
      "type": "Feature",
      "properties": {
        "name": "Storsteinen",
        "service_level": "selvbetjent",
        "operator": "Stavanger Turistforening",
        "capacity": 28,
        "booking_required": true,
        "fee": false,
        "fireplace": false
      },
      "geometry": {
        "type": "Point",
        "coordinates": [
          6.909635,
          59.2804489
        ]
      }
    },
    {
      "type": "Feature",
      "properties": {
        "name": "Løvlia",
        "service_level": "betjent",
        "operator": "Skiforeningen",
        "capacity": 62,
        "booking_required": false,
        "fee": false,
        "fireplace": false
      },
      "geometry": {
        "type": "Point",
        "coordinates": [
          10.4268221,
          60.0904928
        ]
      }
    },
    {
      "type": "Feature",
      "properties": {
        "name": "Støle",
        "service_level": "selvbetjent",
        "operator": "Stavanger Turistforening",
        "capacity": 11,
        "booking_required": false,
        "fee": false,
        "fireplace": false
      },
      "geometry": {
        "type": "Point",
        "coordinates": [
          6.5776847,
          58.763041
        ]
      }
    },
    {
      "type": "Feature",
      "properties": {
        "name": "Myrseter",
        "service_level": "ubetjent",
        "operator": "DNT Oslo og Omegn",
        "capacity": 10,
        "booking_required": true,
        "fee": false,
        "fireplace": false
      },
      "geometry": {
        "type": "Point",
        "coordinates": [
          10.4126142,
          60.0326259
        ]
      }
    },
    {
      "type": "Feature",
      "properties": {
        "name": "Presthytta",
        "service_level": "ubetjent",
        "operator": "DNT Oslo og Omegn",
        "capacity": 6,
        "booking_required": true,
        "fee": false,
        "fireplace": false
      },
      "geometry": {
        "type": "Point",
        "coordinates": [
          10.4259841,
          60.0554574
        ]
      }
    },
    {
      "type": "Feature",
      "properties": {
        "name": "Smedmyrkoia",
        "service_level": "ubetjent",
        "operator": "DNT Oslo og Omegn",
        "capacity": 9,
        "booking_required": true,
        "fee": false,
        "fireplace": false
      },
      "geometry": {
        "type": "Point",
        "coordinates": [
          10.5497153,
          60.0514999
        ]
      }
    },
    {
      "type": "Feature",
      "properties": {
        "name": "Fugleleiken",
        "service_level": "ubetjent",
        "operator": "Telemark Turistforening",
        "capacity": 7,
        "booking_required": true,
        "fee": true,
        "fireplace": false
      },
      "geometry": {
        "type": "Point",
        "coordinates": [
          9.4247798,
          59.4017495
        ]
      }
    },
    {
      "type": "Feature",
      "properties": {
        "name": "Torfinnsheim",
        "service_level": "selvbetjent",
        "operator": "Voss Utferdslag",
        "capacity": 28,
        "booking_required": true,
        "fee": false,
        "fireplace": false
      },
      "geometry": {
        "type": "Point",
        "coordinates": [
          6.2423708,
          60.5621375
        ]
      }
    },
    {
      "type": "Feature",
      "properties": {
        "name": "Langdalsbu",
        "service_level": "unknown",
        "operator": "Den Norske Turistforening",
        "capacity": 0,
        "booking_required": false,
        "fee": false,
        "fireplace": false
      },
      "geometry": {
        "type": "Point",
        "coordinates": [
          7.4161061,
          62.825124
        ]
      }
    },
    {
      "type": "Feature",
      "properties": {
        "name": "Træet gård",
        "service_level": "ubetjent",
        "operator": "Bergen Turlag",
        "capacity": 18,
        "booking_required": true,
        "fee": false,
        "fireplace": false
      },
      "geometry": {
        "type": "Point",
        "coordinates": [
          5.6703698,
          60.5618793
        ]
      }
    },
    {
      "type": "Feature",
      "properties": {
        "name": "Rauhelleren",
        "service_level": "betjent",
        "operator": "Drammens og Oplands Turistforening",
        "capacity": 73,
        "booking_required": true,
        "fee": false,
        "fireplace": false
      },
      "geometry": {
        "type": "Point",
        "coordinates": [
          7.8495965,
          60.2560922
        ]
      }
    },
    {
      "type": "Feature",
      "properties": {
        "name": "Stigstuv",
        "service_level": "betjent",
        "operator": "Den Norske Turistforening",
        "capacity": 39,
        "booking_required": false,
        "fee": false,
        "fireplace": false
      },
      "geometry": {
        "type": "Point",
        "coordinates": [
          7.6555008,
          60.2974633
        ]
      }
    },
    {
      "type": "Feature",
      "properties": {
        "name": "Tuva Turisthytte",
        "service_level": "betjent",
        "operator": "Den Norske Turistforening",
        "capacity": 20,
        "booking_required": false,
        "fee": false,
        "fireplace": false
      },
      "geometry": {
        "type": "Point",
        "coordinates": [
          8.0326937,
          60.4410833
        ]
      }
    },
    {
      "type": "Feature",
      "properties": {
        "name": "Heinseter turisthytte",
        "service_level": "betjent",
        "operator": "Den Norske Turistforening",
        "capacity": 40,
        "booking_required": false,
        "fee": false,
        "fireplace": false
      },
      "geometry": {
        "type": "Point",
        "coordinates": [
          7.9414835,
          60.354208
        ]
      }
    },
    {
      "type": "Feature",
      "properties": {
        "name": "Kjeldebu",
        "service_level": "selvbetjent",
        "operator": "DNT Oslo og Omegn",
        "capacity": 51,
        "booking_required": true,
        "fee": false,
        "fireplace": false
      },
      "geometry": {
        "type": "Point",
        "coordinates": [
          7.4968829,
          60.4270572
        ]
      }
    },
    {
      "type": "Feature",
      "properties": {
        "name": "Gjevilvasshytta",
        "service_level": "betjent",
        "operator": "Trondhjems Turistforening",
        "capacity": 72,
        "booking_required": true,
        "fee": false,
        "fireplace": false
      },
      "geometry": {
        "type": "Point",
        "coordinates": [
          9.4199884,
          62.6985008
        ]
      }
    },
    {
      "type": "Feature",
      "properties": {
        "name": "Iungsdalshytta",
        "service_level": "betjent",
        "operator": "DNT Oslo og Omegn",
        "capacity": 52,
        "booking_required": true,
        "fee": false,
        "fireplace": false
      },
      "geometry": {
        "type": "Point",
        "coordinates": [
          7.9339329,
          60.8100179
        ]
      }
    },
    {
      "type": "Feature",
      "properties": {
        "name": "Fannaråkhytta",
        "service_level": "betjent",
        "operator": "DNT Oslo og Omegn",
        "capacity": 34,
        "booking_required": true,
        "fee": false,
        "fireplace": false
      },
      "geometry": {
        "type": "Point",
        "coordinates": [
          7.9070922,
          61.5161207
        ]
      }
    },
    {
      "type": "Feature",
      "properties": {
        "name": "Skogadalsbøen",
        "service_level": "betjent",
        "operator": "DNT Oslo og Omegn",
        "capacity": 87,
        "booking_required": true,
        "fee": false,
        "fireplace": false
      },
      "geometry": {
        "type": "Point",
        "coordinates": [
          8.0140237,
          61.4631544
        ]
      }
    },
    {
      "type": "Feature",
      "properties": {
        "name": "Bjordalsbu",
        "service_level": "selvbetjent",
        "operator": "DNT Oslo og Omegn",
        "capacity": 26,
        "booking_required": true,
        "fee": true,
        "fireplace": false
      },
      "geometry": {
        "type": "Point",
        "coordinates": [
          7.9982265,
          60.926948
        ]
      }
    },
    {
      "type": "Feature",
      "properties": {
        "name": "Sulebu",
        "service_level": "selvbetjent",
        "operator": "DNT Oslo og Omegn",
        "capacity": 24,
        "booking_required": true,
        "fee": true,
        "fireplace": false
      },
      "geometry": {
        "type": "Point",
        "coordinates": [
          8.1755377,
          61.1401685
        ]
      }
    },
    {
      "type": "Feature",
      "properties": {
        "name": "Sinnerdammen",
        "service_level": "ubetjent",
        "operator": "DNT Oslo og Omegn",
        "capacity": 4,
        "booking_required": true,
        "fee": false,
        "fireplace": false
      },
      "geometry": {
        "type": "Point",
        "coordinates": [
          10.4959643,
          60.1691299
        ]
      }
    },
    {
      "type": "Feature",
      "properties": {
        "name": "Trollvannstua",
        "service_level": "servering",
        "operator": "DNT",
        "capacity": 0,
        "booking_required": false,
        "fee": false,
        "fireplace": false
      },
      "geometry": {
        "type": "Point",
        "coordinates": [
          10.8062045,
          59.9617121
        ]
      }
    },
    {
      "type": "Feature",
      "properties": {
        "name": "Middalsbu",
        "service_level": "selvbetjent",
        "operator": "DNT Oslo og Omegn",
        "capacity": 12,
        "booking_required": true,
        "fee": false,
        "fireplace": false
      },
      "geometry": {
        "type": "Point",
        "coordinates": [
          6.9897632,
          59.9550504
        ]
      }
    },
    {
      "type": "Feature",
      "properties": {
        "name": "Memurubu",
        "service_level": "betjent",
        "operator": "Memurubu Turisthytte AS",
        "capacity": 150,
        "booking_required": false,
        "fee": false,
        "fireplace": false
      },
      "geometry": {
        "type": "Point",
        "coordinates": [
          8.6297991,
          61.4907726
        ]
      }
    },
    {
      "type": "Feature",
      "properties": {
        "name": "Gården Li",
        "service_level": "ubetjent",
        "operator": "Flekkefjord og Oplands Turistforening",
        "capacity": 36,
        "booking_required": true,
        "fee": false,
        "fireplace": false
      },
      "geometry": {
        "type": "Point",
        "coordinates": [
          6.5484355,
          58.2501963
        ]
      }
    },
    {
      "type": "Feature",
      "properties": {
        "name": "Krækkja",
        "service_level": "betjent",
        "operator": "DNT Oslo og Omegn",
        "capacity": 85,
        "booking_required": true,
        "fee": false,
        "fireplace": false
      },
      "geometry": {
        "type": "Point",
        "coordinates": [
          7.7131551,
          60.4513632
        ]
      }
    },
    {
      "type": "Feature",
      "properties": {
        "name": "Fagerheim Fjellstugu",
        "service_level": "betjent",
        "operator": "Den Norske Turistforening",
        "capacity": 94,
        "booking_required": false,
        "fee": false,
        "fireplace": false
      },
      "geometry": {
        "type": "Point",
        "coordinates": [
          7.7852005,
          60.4396414
        ]
      }
    },
    {
      "type": "Feature",
      "properties": {
        "name": "Raggsteindalen Høyfjellstue",
        "service_level": "betjent",
        "operator": "Villand",
        "capacity": 80,
        "booking_required": false,
        "fee": false,
        "fireplace": false
      },
      "geometry": {
        "type": "Point",
        "coordinates": [
          7.8451001,
          60.6718286
        ]
      }
    },
    {
      "type": "Feature",
      "properties": {
        "name": "Avdalen gard",
        "service_level": "betjent",
        "operator": "Stiftinga Avdal Gard",
        "capacity": 22,
        "booking_required": false,
        "fee": false,
        "fireplace": false
      },
      "geometry": {
        "type": "Point",
        "coordinates": [
          7.880429,
          61.3562901
        ]
      }
    },
    {
      "type": "Feature",
      "properties": {
        "name": "Gjendesheim",
        "service_level": "betjent",
        "operator": "DNT Oslo og Omegn",
        "capacity": 185,
        "booking_required": true,
        "fee": false,
        "fireplace": false
      },
      "geometry": {
        "type": "Point",
        "coordinates": [
          8.8126376,
          61.4943459
        ]
      }
    },
    {
      "type": "Feature",
      "properties": {
        "name": "Spikertjernhytta",
        "service_level": "unknown",
        "operator": "DNT Oslo og Omegn",
        "capacity": 0,
        "booking_required": false,
        "fee": false,
        "fireplace": false
      },
      "geometry": {
        "type": "Point",
        "coordinates": [
          10.9378765,
          60.089754
        ]
      }
    },
    {
      "type": "Feature",
      "properties": {
        "name": "Øvresaga",
        "service_level": "ubetjent",
        "operator": "DNT Oslo og Omegn",
        "capacity": 8,
        "booking_required": true,
        "fee": false,
        "fireplace": false
      },
      "geometry": {
        "type": "Point",
        "coordinates": [
          11.0293603,
          59.7985198
        ]
      }
    },
    {
      "type": "Feature",
      "properties": {
        "name": "Røyrivannskoia",
        "service_level": "ubetjent",
        "operator": "DNT Oslo og Omegn",
        "capacity": 6,
        "booking_required": true,
        "fee": false,
        "fireplace": false
      },
      "geometry": {
        "type": "Point",
        "coordinates": [
          11.0097833,
          59.8499039
        ]
      }
    },
    {
      "type": "Feature",
      "properties": {
        "name": "Tingstadkoia",
        "service_level": "ubetjent",
        "operator": "Hamar og Hedemarken Turistforening",
        "capacity": 10,
        "booking_required": true,
        "fee": false,
        "fireplace": false
      },
      "geometry": {
        "type": "Point",
        "coordinates": [
          11.5782717,
          60.6721911
        ]
      }
    },
    {
      "type": "Feature",
      "properties": {
        "name": "Daggrø",
        "service_level": "ubetjent",
        "operator": "Kongsberg og Omegns Turistforening",
        "capacity": 12,
        "booking_required": true,
        "fee": true,
        "fireplace": false
      },
      "geometry": {
        "type": "Point",
        "coordinates": [
          8.9811316,
          60.0291467
        ]
      }
    },
    {
      "type": "Feature",
      "properties": {
        "name": "Gamle Høgevarde",
        "service_level": "selvbetjent",
        "operator": "DNT Drammen og Omegn",
        "capacity": 28,
        "booking_required": true,
        "fee": true,
        "fireplace": true
      },
      "geometry": {
        "type": "Point",
        "coordinates": [
          9.4601872,
          60.2931398
        ]
      }
    },
    {
      "type": "Feature",
      "properties": {
        "name": "Dalabu",
        "service_level": "ubetjent",
        "operator": "DNT Drammen og Omegn",
        "capacity": 8,
        "booking_required": true,
        "fee": true,
        "fireplace": true
      },
      "geometry": {
        "type": "Point",
        "coordinates": [
          8.9796452,
          60.4013456
        ]
      }
    },
    {
      "type": "Feature",
      "properties": {
        "name": "Gammelsetra",
        "service_level": "selvbetjent",
        "operator": "Kristiansund og Nordmøre Turistforening",
        "capacity": 32,
        "booking_required": true,
        "fee": false,
        "fireplace": false
      },
      "geometry": {
        "type": "Point",
        "coordinates": [
          9.1192951,
          62.5009512
        ]
      }
    },
    {
      "type": "Feature",
      "properties": {
        "name": "Hotel Rondablikk",
        "service_level": "betjent",
        "operator": "DNT",
        "capacity": 182,
        "booking_required": false,
        "fee": false,
        "fireplace": false
      },
      "geometry": {
        "type": "Point",
        "coordinates": [
          9.7225963,
          61.7521114
        ]
      }
    },
    {
      "type": "Feature",
      "properties": {
        "name": "Fagerhøy Fjellstue",
        "service_level": "betjent",
        "operator": "Den Norske Turistforening",
        "capacity": 72,
        "booking_required": false,
        "fee": false,
        "fireplace": false
      },
      "geometry": {
        "type": "Point",
        "coordinates": [
          8.8221044,
          60.5390748
        ]
      }
    },
    {
      "type": "Feature",
      "properties": {
        "name": "Kikutstua",
        "service_level": "betjent",
        "operator": "Skiforeningen",
        "capacity": 46,
        "booking_required": false,
        "fee": false,
        "fireplace": false
      },
      "geometry": {
        "type": "Point",
        "coordinates": [
          10.6553173,
          60.0764244
        ]
      }
    },
    {
      "type": "Feature",
      "properties": {
        "name": "Sognefjellshytta",
        "service_level": "betjent",
        "operator": "DNT",
        "capacity": 80,
        "booking_required": false,
        "fee": false,
        "fireplace": false
      },
      "geometry": {
        "type": "Point",
        "coordinates": [
          7.9978998,
          61.5649449
        ]
      }
    },
    {
      "type": "Feature",
      "properties": {
        "name": "Storerikvollen",
        "service_level": "betjent",
        "operator": "Trondhjems Turistforening",
        "capacity": 81,
        "booking_required": true,
        "fee": false,
        "fireplace": false
      },
      "geometry": {
        "type": "Point",
        "coordinates": [
          11.9830939,
          63.1116525
        ]
      }
    },
    {
      "type": "Feature",
      "properties": {
        "name": "Ramsjøhytta",
        "service_level": "selvbetjent",
        "operator": "Trondhjems Turistforening",
        "capacity": 36,
        "booking_required": true,
        "fee": false,
        "fireplace": false
      },
      "geometry": {
        "type": "Point",
        "coordinates": [
          11.721951,
          63.1636424
        ]
      }
    },
    {
      "type": "Feature",
      "properties": {
        "name": "Kongsvold Fjeldstue",
        "service_level": "betjent",
        "operator": "Kongsvold Fjellstue",
        "capacity": 70,
        "booking_required": false,
        "fee": false,
        "fireplace": false
      },
      "geometry": {
        "type": "Point",
        "coordinates": [
          9.6056457,
          62.3033052
        ]
      }
    },
    {
      "type": "Feature",
      "properties": {
        "name": "Besso Turisthytte",
        "service_level": "betjent",
        "operator": "Den Norske Turistforening",
        "capacity": 38,
        "booking_required": false,
        "fee": false,
        "fireplace": false
      },
      "geometry": {
        "type": "Point",
        "coordinates": [
          7.4029447,
          60.1831275
        ]
      }
    },
    {
      "type": "Feature",
      "properties": {
        "name": "Pyttbua",
        "service_level": "selvbetjent",
        "operator": "Ålesund-Sunnmøre Turistforening",
        "capacity": 51,
        "booking_required": true,
        "fee": false,
        "fireplace": false
      },
      "geometry": {
        "type": "Point",
        "coordinates": [
          7.7985752,
          62.2127489
        ]
      }
    },
    {
      "type": "Feature",
      "properties": {
        "name": "Kaldhusseter",
        "service_level": "betjent",
        "operator": "Ålesund-Sunnmøre Turistforening",
        "capacity": 61,
        "booking_required": true,
        "fee": false,
        "fireplace": false
      },
      "geometry": {
        "type": "Point",
        "coordinates": [
          7.4291792,
          62.1727931
        ]
      }
    },
    {
      "type": "Feature",
      "properties": {
        "name": "Vakkerstøylen",
        "service_level": "selvbetjent",
        "operator": "Ålesund-Sunnmøre Turistforening",
        "capacity": 28,
        "booking_required": true,
        "fee": false,
        "fireplace": false
      },
      "geometry": {
        "type": "Point",
        "coordinates": [
          7.8317317,
          62.268592
        ]
      }
    },
    {
      "type": "Feature",
      "properties": {
        "name": "Fieldfarehytta",
        "service_level": "ubetjent",
        "operator": "Ålesund-Sunnmøre Turistforening",
        "capacity": 4,
        "booking_required": true,
        "fee": false,
        "fireplace": false
      },
      "geometry": {
        "type": "Point",
        "coordinates": [
          7.7034023,
          62.1592033
        ]
      }
    },
    {
      "type": "Feature",
      "properties": {
        "name": "Grotli Høyfjellshotel",
        "service_level": "betjent",
        "operator": "DNT",
        "capacity": 120,
        "booking_required": false,
        "fee": false,
        "fireplace": false
      },
      "geometry": {
        "type": "Point",
        "coordinates": [
          7.6319585,
          62.0139055
        ]
      }
    },
    {
      "type": "Feature",
      "properties": {
        "name": "Hindsæter Fjellhotell",
        "service_level": "betjent",
        "operator": "DNT",
        "capacity": 50,
        "booking_required": false,
        "fee": false,
        "fireplace": false
      },
      "geometry": {
        "type": "Point",
        "coordinates": [
          8.9680466,
          61.6177521
        ]
      }
    },
    {
      "type": "Feature",
      "properties": {
        "name": "Bessheim Fjellstue",
        "service_level": "betjent",
        "operator": "Den Norske Turistforening",
        "capacity": 150,
        "booking_required": false,
        "fee": false,
        "fireplace": false
      },
      "geometry": {
        "type": "Point",
        "coordinates": [
          8.8529721,
          61.5146226
        ]
      }
    },
    {
      "type": "Feature",
      "properties": {
        "name": "Yksendalsbu",
        "service_level": "selvbetjent",
        "operator": "DNT Oslo og Omegn",
        "capacity": 18,
        "booking_required": true,
        "fee": false,
        "fireplace": false
      },
      "geometry": {
        "type": "Point",
        "coordinates": [
          8.5163116,
          61.3094107
        ]
      }
    },
    {
      "type": "Feature",
      "properties": {
        "name": "Raubergstulen Turisthytte",
        "service_level": "betjent",
        "operator": "Den Norske Turistforening",
        "capacity": 160,
        "booking_required": false,
        "fee": false,
        "fireplace": false
      },
      "geometry": {
        "type": "Point",
        "coordinates": [
          8.3915118,
          61.7173086
        ]
      }
    },
    {
      "type": "Feature",
      "properties": {
        "name": "Tomashelleren",
        "service_level": "selvbetjent",
        "operator": "DNT Oslo og Omegn",
        "capacity": 14,
        "booking_required": true,
        "fee": false,
        "fireplace": false
      },
      "geometry": {
        "type": "Point",
        "coordinates": [
          8.5324369,
          61.2358071
        ]
      }
    },
    {
      "type": "Feature",
      "properties": {
        "name": "Spiterstulen turisthytte",
        "service_level": "betjent",
        "operator": "Den Norske Turistforening",
        "capacity": 150,
        "booking_required": false,
        "fee": false,
        "fireplace": false
      },
      "geometry": {
        "type": "Point",
        "coordinates": [
          8.4045818,
          61.6248261
        ]
      }
    },
    {
      "type": "Feature",
      "properties": {
        "name": "Skjellbreidhytta",
        "service_level": "ubetjent",
        "operator": "Lillehammer og Omland Turistforening",
        "capacity": 7,
        "booking_required": true,
        "fee": false,
        "fireplace": false
      },
      "geometry": {
        "type": "Point",
        "coordinates": [
          10.0982848,
          61.1149648
        ]
      }
    },
    {
      "type": "Feature",
      "properties": {
        "name": "Storkvelvbu",
        "service_level": "selvbetjent",
        "operator": "DNT Oslo og Omegn",
        "capacity": 27,
        "booking_required": true,
        "fee": false,
        "fireplace": false
      },
      "geometry": {
        "type": "Point",
        "coordinates": [
          9.4454823,
          61.3374674
        ]
      }
    },
    {
      "type": "Feature",
      "properties": {
        "name": "Kittilbua",
        "service_level": "ubetjent",
        "operator": "Lillehammer og Omland Turistforening",
        "capacity": 7,
        "booking_required": true,
        "fee": false,
        "fireplace": false
      },
      "geometry": {
        "type": "Point",
        "coordinates": [
          9.9595491,
          61.1723657
        ]
      }
    },
    {
      "type": "Feature",
      "properties": {
        "name": "Abborputthytta",
        "service_level": "nødbu",
        "operator": "Gran Almenning",
        "capacity": 4,
        "booking_required": false,
        "fee": false,
        "fireplace": false
      },
      "geometry": {
        "type": "Point",
        "coordinates": [
          10.8324777,
          60.3937984
        ]
      }
    },
    {
      "type": "Feature",
      "properties": {
        "name": "Oskampen",
        "service_level": "selvbetjent",
        "operator": "DNT Oslo og Omegn",
        "capacity": 12,
        "booking_required": true,
        "fee": false,
        "fireplace": false
      },
      "geometry": {
        "type": "Point",
        "coordinates": [
          9.1472741,
          61.4261414
        ]
      }
    },
    {
      "type": "Feature",
      "properties": {
        "name": "Storhøliseter",
        "service_level": "selvbetjent",
        "operator": "DNT Oslo og Omegn",
        "capacity": 9,
        "booking_required": true,
        "fee": false,
        "fireplace": false
      },
      "geometry": {
        "type": "Point",
        "coordinates": [
          9.3457943,
          61.4178132
        ]
      }
    },
    {
      "type": "Feature",
      "properties": {
        "name": "Fast",
        "service_level": "selvbetjent",
        "operator": "DNT Oslo og Omegn",
        "capacity": 11,
        "booking_required": true,
        "fee": false,
        "fireplace": false
      },
      "geometry": {
        "type": "Point",
        "coordinates": [
          7.538208,
          61.5733318
        ]
      }
    },
    {
      "type": "Feature",
      "properties": {
        "name": "Stølsdalen",
        "service_level": "selvbetjent",
        "operator": "DNT Oslo og Omegn",
        "capacity": 9,
        "booking_required": true,
        "fee": false,
        "fireplace": false
      },
      "geometry": {
        "type": "Point",
        "coordinates": [
          7.8132941,
          61.5678956
        ]
      }
    },
    {
      "type": "Feature",
      "properties": {
        "name": "Arentzbu",
        "service_level": "selvbetjent",
        "operator": "DNT Oslo og Omegn",
        "capacity": 24,
        "booking_required": true,
        "fee": false,
        "fireplace": false
      },
      "geometry": {
        "type": "Point",
        "coordinates": [
          7.5557477,
          61.640626
        ]
      }
    },
    {
      "type": "Feature",
      "properties": {
        "name": "Vetåbua",
        "service_level": "selvbetjent",
        "operator": "Lillehammer og Omland Turistforening",
        "capacity": 12,
        "booking_required": true,
        "fee": true,
        "fireplace": false
      },
      "geometry": {
        "type": "Point",
        "coordinates": [
          10.5029685,
          61.4686283
        ]
      }
    },
    {
      "type": "Feature",
      "properties": {
        "name": "Lyngbua",
        "service_level": "ubetjent",
        "operator": "Lillehammer og Omland Turistforening",
        "capacity": 5,
        "booking_required": true,
        "fee": true,
        "fireplace": false
      },
      "geometry": {
        "type": "Point",
        "coordinates": [
          10.7473345,
          61.3823782
        ]
      }
    },
    {
      "type": "Feature",
      "properties": {
        "name": "Flisberget",
        "service_level": "ubetjent",
        "operator": "Finnskogen Turistforening",
        "capacity": 2,
        "booking_required": true,
        "fee": false,
        "fireplace": false
      },
      "geometry": {
        "type": "Point",
        "coordinates": [
          12.0871824,
          61.0063674
        ]
      }
    },
    {
      "type": "Feature",
      "properties": {
        "name": "Åkersætra",
        "service_level": "ubetjent",
        "operator": "Hamar og Hedemarken Turistforening",
        "capacity": 12,
        "booking_required": true,
        "fee": true,
        "fireplace": true
      },
      "geometry": {
        "type": "Point",
        "coordinates": [
          10.9174631,
          61.1553669
        ]
      }
    },
    {
      "type": "Feature",
      "properties": {
        "name": "Juskjølkoia",
        "service_level": "ubetjent",
        "operator": "Finnskogen Turistforening",
        "capacity": 4,
        "booking_required": true,
        "fee": false,
        "fireplace": false
      },
      "geometry": {
        "type": "Point",
        "coordinates": [
          12.0111173,
          61.0166126
        ]
      }
    },
    {
      "type": "Feature",
      "properties": {
        "name": "Jammerdalsbu",
        "service_level": "selvbetjent",
        "operator": "DNT Oslo og Omegn",
        "capacity": 12,
        "booking_required": true,
        "fee": true,
        "fireplace": false
      },
      "geometry": {
        "type": "Point",
        "coordinates": [
          10.3536473,
          61.5857799
        ]
      }
    },
    {
      "type": "Feature",
      "properties": {
        "name": "Halgutusveen",
        "service_level": "ubetjent",
        "operator": "Hamar og Hedemarken Turistforening",
        "capacity": 6,
        "booking_required": true,
        "fee": true,
        "fireplace": true
      },
      "geometry": {
        "type": "Point",
        "coordinates": [
          11.0538055,
          61.1196233
        ]
      }
    },
    {
      "type": "Feature",
      "properties": {
        "name": "Djupslia",
        "service_level": "selvbetjent",
        "operator": "Lillehammer og Omland Turistforening",
        "capacity": 14,
        "booking_required": true,
        "fee": true,
        "fireplace": true
      },
      "geometry": {
        "type": "Point",
        "coordinates": [
          10.5829316,
          61.372431
        ]
      }
    },
    {
      "type": "Feature",
      "properties": {
        "name": "Hotel Union Øye",
        "service_level": "betjent",
        "operator": "DNT",
        "capacity": 0,
        "booking_required": false,
        "fee": false,
        "fireplace": false
      },
      "geometry": {
        "type": "Point",
        "coordinates": [
          6.6596645,
          62.1931115
        ]
      }
    },
    {
      "type": "Feature",
      "properties": {
        "name": "Sørre Hemsing",
        "service_level": "betjent",
        "operator": "DNT",
        "capacity": 10,
        "booking_required": false,
        "fee": false,
        "fireplace": false
      },
      "geometry": {
        "type": "Point",
        "coordinates": [
          8.6698883,
          61.1636727
        ]
      }
    },
    {
      "type": "Feature",
      "properties": {
        "name": "Lysjøhimet",
        "service_level": "ubetjent",
        "operator": "Den Norske Turistforening",
        "capacity": 3,
        "booking_required": false,
        "fee": false,
        "fireplace": false
      },
      "geometry": {
        "type": "Point",
        "coordinates": [
          11.2934226,
          60.4573465
        ]
      }
    },
    {
      "type": "Feature",
      "properties": {
        "name": "Solstua",
        "service_level": "ubetjent",
        "operator": "Friluftsklubben",
        "capacity": 6,
        "booking_required": false,
        "fee": false,
        "fireplace": false
      },
      "geometry": {
        "type": "Point",
        "coordinates": [
          10.329067,
          60.0470635
        ]
      }
    },
    {
      "type": "Feature",
      "properties": {
        "name": "Bjørnholt",
        "service_level": "servering",
        "operator": "DNT",
        "capacity": 0,
        "booking_required": false,
        "fee": false,
        "fireplace": false
      },
      "geometry": {
        "type": "Point",
        "coordinates": [
          10.6895233,
          60.0509782
        ]
      }
    },
    {
      "type": "Feature",
      "properties": {
        "name": "Trondsbu",
        "service_level": "betjent",
        "operator": "Den Norske Turistforening",
        "capacity": 29,
        "booking_required": false,
        "fee": false,
        "fireplace": false
      },
      "geometry": {
        "type": "Point",
        "coordinates": [
          7.5522216,
          60.2912227
        ]
      }
    },
    {
      "type": "Feature",
      "properties": {
        "name": "Bjoreidalen turisthytte",
        "service_level": "stengt",
        "operator": "Den Norske Turistforening",
        "capacity": 0,
        "booking_required": false,
        "fee": false,
        "fireplace": false
      },
      "geometry": {
        "type": "Point",
        "coordinates": [
          7.5418993,
          60.3324751
        ]
      }
    },
    {
      "type": "Feature",
      "properties": {
        "name": "Tråastølen",
        "service_level": "betjent",
        "operator": "Den Norske Turistforening",
        "capacity": 35,
        "booking_required": false,
        "fee": false,
        "fireplace": false
      },
      "geometry": {
        "type": "Point",
        "coordinates": [
          7.5217305,
          60.3691699
        ]
      }
    },
    {
      "type": "Feature",
      "properties": {
        "name": "Mariholtet Sportsstue",
        "service_level": "servering",
        "operator": "DNT",
        "capacity": 0,
        "booking_required": false,
        "fee": false,
        "fireplace": false
      },
      "geometry": {
        "type": "Point",
        "coordinates": [
          10.9076877,
          59.8916451
        ]
      }
    },
    {
      "type": "Feature",
      "properties": {
        "name": "Lavollen",
        "service_level": "servering",
        "operator": "DNT",
        "capacity": 0,
        "booking_required": false,
        "fee": false,
        "fireplace": false
      },
      "geometry": {
        "type": "Point",
        "coordinates": [
          10.3047909,
          63.4229136
        ]
      }
    },
    {
      "type": "Feature",
      "properties": {
        "name": "Studenterhytta",
        "service_level": "betjent",
        "operator": "Oslostudentenes Idrettsklubb (OSI)",
        "capacity": 56,
        "booking_required": false,
        "fee": false,
        "fireplace": false
      },
      "geometry": {
        "type": "Point",
        "coordinates": [
          10.6581309,
          60.0247802
        ]
      }
    },
    {
      "type": "Feature",
      "properties": {
        "name": "Bøvelstad",
        "service_level": "ubetjent",
        "operator": "DNT Oslo og Omegn",
        "capacity": 17,
        "booking_required": true,
        "fee": false,
        "fireplace": false
      },
      "geometry": {
        "type": "Point",
        "coordinates": [
          11.0440905,
          59.8152519
        ]
      }
    },
    {
      "type": "Feature",
      "properties": {
        "name": "Gjestgiveriet",
        "service_level": "nødbu",
        "operator": "private",
        "capacity": 0,
        "booking_required": false,
        "fee": false,
        "fireplace": false
      },
      "geometry": {
        "type": "Point",
        "coordinates": [
          12.2023516,
          60.9626598
        ]
      }
    },
    {
      "type": "Feature",
      "properties": {
        "name": "Opptrekkern",
        "service_level": "nødbu",
        "operator": "Våler Idrettslag, Romedal Almenning Turstilag, grunneier Yngve Astrup",
        "capacity": 6,
        "booking_required": false,
        "fee": false,
        "fireplace": false
      },
      "geometry": {
        "type": "Point",
        "coordinates": [
          11.6384681,
          60.6087586
        ]
      }
    },
    {
      "type": "Feature",
      "properties": {
        "name": "Gammelsaga",
        "service_level": "ubetjent",
        "operator": "Hamar og Hedemarken Turistforening",
        "capacity": 5,
        "booking_required": true,
        "fee": false,
        "fireplace": false
      },
      "geometry": {
        "type": "Point",
        "coordinates": [
          11.4042369,
          60.5195845
        ]
      }
    },
    {
      "type": "Feature",
      "properties": {
        "name": "Råbjørnhytta",
        "service_level": "ubetjent",
        "operator": "DNT Oslo og Omegn",
        "capacity": 10,
        "booking_required": true,
        "fee": false,
        "fireplace": false
      },
      "geometry": {
        "type": "Point",
        "coordinates": [
          10.854964,
          60.2361636
        ]
      }
    },
    {
      "type": "Feature",
      "properties": {
        "name": "Snellingen",
        "service_level": "ubetjent",
        "operator": "DNT Oslo og Omegn",
        "capacity": 9,
        "booking_required": true,
        "fee": false,
        "fireplace": false
      },
      "geometry": {
        "type": "Point",
        "coordinates": [
          10.7854527,
          60.2622488
        ]
      }
    },
    {
      "type": "Feature",
      "properties": {
        "name": "Kjørestua på Sagvollen",
        "service_level": "ubetjent",
        "operator": "Hadeland Turlag",
        "capacity": 10,
        "booking_required": true,
        "fee": false,
        "fireplace": false
      },
      "geometry": {
        "type": "Point",
        "coordinates": [
          10.7147035,
          60.3758666
        ]
      }
    },
    {
      "type": "Feature",
      "properties": {
        "name": "Målia",
        "service_level": "ubetjent",
        "operator": "Hamar og Hedemarken Turistforening",
        "capacity": 10,
        "booking_required": true,
        "fee": true,
        "fireplace": true
      },
      "geometry": {
        "type": "Point",
        "coordinates": [
          11.2385265,
          60.9838062
        ]
      }
    },
    {
      "type": "Feature",
      "properties": {
        "name": "Snippkoia",
        "service_level": "selvbetjent",
        "operator": "Hamar og Hedemarken Turistforening",
        "capacity": 5,
        "booking_required": true,
        "fee": true,
        "fireplace": true
      },
      "geometry": {
        "type": "Point",
        "coordinates": [
          11.2479329,
          61.0387865
        ]
      }
    },
    {
      "type": "Feature",
      "properties": {
        "name": "Rondetunet friluftsenter",
        "service_level": "betjent",
        "operator": "DNT",
        "capacity": 0,
        "booking_required": false,
        "fee": false,
        "fireplace": false
      },
      "geometry": {
        "type": "Point",
        "coordinates": [
          10.2372784,
          61.8339181
        ]
      }
    },
    {
      "type": "Feature",
      "properties": {
        "name": "Torsetlia Fjellstue",
        "service_level": "betjent",
        "operator": "Den Norske Turistforening",
        "capacity": 70,
        "booking_required": false,
        "fee": false,
        "fireplace": false
      },
      "geometry": {
        "type": "Point",
        "coordinates": [
          8.4899396,
          60.3691597
        ]
      }
    },
    {
      "type": "Feature",
      "properties": {
        "name": "Jørgenhytta",
        "service_level": "ubetjent",
        "operator": "DNT Oslo og Omegn",
        "capacity": 7,
        "booking_required": true,
        "fee": false,
        "fireplace": false
      },
      "geometry": {
        "type": "Point",
        "coordinates": [
          10.3237934,
          60.0202193
        ]
      }
    },
    {
      "type": "Feature",
      "properties": {
        "name": "Setertjernstua",
        "service_level": "servering",
        "operator": "DNT",
        "capacity": 0,
        "booking_required": false,
        "fee": false,
        "fireplace": false
      },
      "geometry": {
        "type": "Point",
        "coordinates": [
          11.0411789,
          59.8847542
        ]
      }
    },
    {
      "type": "Feature",
      "properties": {
        "name": "Venabu Fjellhotell",
        "service_level": "betjent",
        "operator": "DNT",
        "capacity": 120,
        "booking_required": false,
        "fee": false,
        "fireplace": false
      },
      "geometry": {
        "type": "Point",
        "coordinates": [
          10.108226,
          61.650042
        ]
      }
    },
    {
      "type": "Feature",
      "properties": {
        "name": "Ranten Hotell",
        "service_level": "betjent",
        "operator": "DNT",
        "capacity": 60,
        "booking_required": false,
        "fee": false,
        "fireplace": false
      },
      "geometry": {
        "type": "Point",
        "coordinates": [
          8.7839826,
          60.5348209
        ]
      }
    },
    {
      "type": "Feature",
      "properties": {
        "name": "Skjelbreia",
        "service_level": "servering",
        "operator": "Oslomarka trekkhundklubb",
        "capacity": 16,
        "booking_required": false,
        "fee": false,
        "fireplace": false
      },
      "geometry": {
        "type": "Point",
        "coordinates": [
          10.9626334,
          59.8200641
        ]
      }
    },
    {
      "type": "Feature",
      "properties": {
        "name": "Eriksbu",
        "service_level": "ubetjent",
        "operator": "Kongsberg og Omegns Turistforening",
        "capacity": 24,
        "booking_required": true,
        "fee": false,
        "fireplace": false
      },
      "geometry": {
        "type": "Point",
        "coordinates": [
          9.1890262,
          59.8816078
        ]
      }
    },
    {
      "type": "Feature",
      "properties": {
        "name": "Sigridsbu",
        "service_level": "ubetjent",
        "operator": "Kongsberg og Omegns Turistforening",
        "capacity": 30,
        "booking_required": true,
        "fee": false,
        "fireplace": false
      },
      "geometry": {
        "type": "Point",
        "coordinates": [
          9.1557585,
          59.7946398
        ]
      }
    },
    {
      "type": "Feature",
      "properties": {
        "name": "Tjørnbrotbu",
        "service_level": "selvbetjent",
        "operator": "Aust-Agder Turistforening",
        "capacity": 22,
        "booking_required": false,
        "fee": true,
        "fireplace": false
      },
      "geometry": {
        "type": "Point",
        "coordinates": [
          7.5203312,
          59.5372016
        ]
      }
    },
    {
      "type": "Feature",
      "properties": {
        "name": "Berdalsbu",
        "service_level": "selvbetjent",
        "operator": "Aust-Agder Turistforening",
        "capacity": 18,
        "booking_required": false,
        "fee": true,
        "fireplace": false
      },
      "geometry": {
        "type": "Point",
        "coordinates": [
          7.5085987,
          59.4432788
        ]
      }
    },
    {
      "type": "Feature",
      "properties": {
        "name": "Kvitfjellhytta",
        "service_level": "selvbetjent",
        "operator": "Nord-Trøndelag Turistforening",
        "capacity": 11,
        "booking_required": true,
        "fee": false,
        "fireplace": false
      },
      "geometry": {
        "type": "Point",
        "coordinates": [
          11.2553566,
          63.3444724
        ]
      }
    },
    {
      "type": "Feature",
      "properties": {
        "name": "Prestøyhytta",
        "service_level": "selvbetjent",
        "operator": "Nord-Trøndelag Turistforening",
        "capacity": 12,
        "booking_required": true,
        "fee": false,
        "fireplace": false
      },
      "geometry": {
        "type": "Point",
        "coordinates": [
          11.3415744,
          63.2891387
        ]
      }
    },
    {
      "type": "Feature",
      "properties": {
        "name": "Schulzhytta",
        "service_level": "betjent",
        "operator": "Trondhjems Turistforening",
        "capacity": 66,
        "booking_required": true,
        "fee": false,
        "fireplace": false
      },
      "geometry": {
        "type": "Point",
        "coordinates": [
          11.5065181,
          63.2119247
        ]
      }
    },
    {
      "type": "Feature",
      "properties": {
        "name": "Nygård",
        "service_level": "servering",
        "operator": "DNT",
        "capacity": 0,
        "booking_required": false,
        "fee": false,
        "fireplace": false
      },
      "geometry": {
        "type": "Point",
        "coordinates": [
          10.5480361,
          59.9600831
        ]
      }
    },
    {
      "type": "Feature",
      "properties": {
        "name": "Vikerkoia",
        "service_level": "ubetjent",
        "operator": "Ringerikes Turistforening",
        "capacity": 8,
        "booking_required": true,
        "fee": false,
        "fireplace": false
      },
      "geometry": {
        "type": "Point",
        "coordinates": [
          9.9562076,
          60.4468527
        ]
      }
    },
    {
      "type": "Feature",
      "properties": {
        "name": "Kjøltjernhytta",
        "service_level": "unknown",
        "operator": "Den Norske Turistforening",
        "capacity": 0,
        "booking_required": false,
        "fee": false,
        "fireplace": false
      },
      "geometry": {
        "type": "Point",
        "coordinates": [
          11.6225934,
          60.0000957
        ]
      }
    },
    {
      "type": "Feature",
      "properties": {
        "name": "Naustihytta",
        "service_level": "unknown",
        "operator": "Den Norske Turistforening",
        "capacity": 0,
        "booking_required": false,
        "fee": false,
        "fireplace": false
      },
      "geometry": {
        "type": "Point",
        "coordinates": [
          21.9542572,
          69.3337155
        ]
      }
    },
    {
      "type": "Feature",
      "properties": {
        "name": "Sappenhytta",
        "service_level": "unknown",
        "operator": "Troms Turlag",
        "capacity": 0,
        "booking_required": false,
        "fee": false,
        "fireplace": false
      },
      "geometry": {
        "type": "Point",
        "coordinates": [
          21.2719043,
          69.5653494
        ]
      }
    },
    {
      "type": "Feature",
      "properties": {
        "name": "Hovstøyl",
        "service_level": "selvbetjent",
        "operator": "Aust-Agder Turistforening",
        "capacity": 20,
        "booking_required": false,
        "fee": true,
        "fireplace": false
      },
      "geometry": {
        "type": "Point",
        "coordinates": [
          7.7706548,
          59.2551631
        ]
      }
    },
    {
      "type": "Feature",
      "properties": {
        "name": "Solheimstulen Turisthytte",
        "service_level": "betjent",
        "operator": "DNT Drammen og Omegn",
        "capacity": 40,
        "booking_required": false,
        "fee": true,
        "fireplace": false
      },
      "geometry": {
        "type": "Point",
        "coordinates": [
          8.3408216,
          60.2998394
        ]
      }
    },
    {
      "type": "Feature",
      "properties": {
        "name": "Helberghytta",
        "service_level": "selvbetjent",
        "operator": "DNT Oslo og Omegn",
        "capacity": 16,
        "booking_required": true,
        "fee": false,
        "fireplace": false
      },
      "geometry": {
        "type": "Point",
        "coordinates": [
          8.4799132,
          59.9289233
        ]
      }
    },
    {
      "type": "Feature",
      "properties": {
        "name": "Skriurusten",
        "service_level": "selvbetjent",
        "operator": "DNT Oslo og Omegn",
        "capacity": 16,
        "booking_required": true,
        "fee": false,
        "fireplace": false
      },
      "geometry": {
        "type": "Point",
        "coordinates": [
          9.3429367,
          61.3338272
        ]
      }
    },
    {
      "type": "Feature",
      "properties": {
        "name": "Sommerseter",
        "service_level": "ubetjent",
        "operator": "DNT Telemark",
        "capacity": 12,
        "booking_required": true,
        "fee": true,
        "fireplace": false
      },
      "geometry": {
        "type": "Point",
        "coordinates": [
          9.4701277,
          59.4537632
        ]
      }
    },
    {
      "type": "Feature",
      "properties": {
        "name": "Joatkajávri fjellstue",
        "service_level": "betjent",
        "operator": "Den Norske Turistforening",
        "capacity": 32,
        "booking_required": false,
        "fee": false,
        "fireplace": false
      },
      "geometry": {
        "type": "Point",
        "coordinates": [
          23.933054,
          69.7547831
        ]
      }
    },
    {
      "type": "Feature",
      "properties": {
        "name": "Holmaskjer",
        "service_level": "selvbetjent",
        "operator": "Bergen Turlag",
        "capacity": 18,
        "booking_required": true,
        "fee": false,
        "fireplace": false
      },
      "geometry": {
        "type": "Point",
        "coordinates": [
          6.4429214,
          60.0960738
        ]
      }
    },
    {
      "type": "Feature",
      "properties": {
        "name": "Bråtendammen gapahuk",
        "service_level": "nødbu",
        "operator": "private",
        "capacity": 0,
        "booking_required": false,
        "fee": false,
        "fireplace": false
      },
      "geometry": {
        "type": "Point",
        "coordinates": [
          12.2250196,
          60.9800885
        ]
      }
    },
    {
      "type": "Feature",
      "properties": {
        "name": "Djupdalen gapahuk",
        "service_level": "nødbu",
        "operator": "private",
        "capacity": 0,
        "booking_required": false,
        "fee": false,
        "fireplace": false
      },
      "geometry": {
        "type": "Point",
        "coordinates": [
          12.0101661,
          59.9161677
        ]
      }
    },
    {
      "type": "Feature",
      "properties": {
        "name": "Flotstjennet gapahuk",
        "service_level": "nødbu",
        "operator": "private",
        "capacity": 0,
        "booking_required": false,
        "fee": false,
        "fireplace": false
      },
      "geometry": {
        "type": "Point",
        "coordinates": [
          11.8526732,
          60.8110956
        ]
      }
    },